[{"lng":3.363307,"lat":49.3706542,"label":"rue Antoine de Saint Exupéry, 02200 VILLENEUVE SAINT GERMAIN","numéro":82,"nom_adherent":"Aisne Diesel Services"},{"lng":4.113761,"lat":49.91489499999999,"label":"ZA de l'Alouette, 02830 SAINT MICHEL","numéro":81,"nom_adherent":"Aisne Diesel Services"},{"lng":3.2613118,"lat":49.852969,"label":"Rue Antoine Parmentier, 02100 SAINT QUENTIN","numéro":80,"nom_adherent":"Aisne Diesel Services"},{"lng":3.3575877,"lat":46.5452114,"label":"20 rue Nicolas Rambourg, 03400 YZEURE","numéro":223,"nom_adherent":"GARAGE ALLIER POIDS LOURDS"},{"lng":6.796052,"lat":44.6763679,"label":"Le Villard, 05600 GUILLESTRE","numéro":233,"nom_adherent":"BARNEAUD PNEUS"},{"lng":6.0449648,"lat":44.5333722,"label":"45 route de Saint Jean, 05000 GAP","numéro":132,"nom_adherent":"BARNEAUD PNEUS"},{"lng":7.2913792,"lat":43.704904,"label":"263, Bd du Mont BORON, 06300 Nice","numéro":175,"nom_adherent":"PRESTIGE AUTO-RADIO ACCESSOIRES"},{"lng":7.190374,"lat":43.7064903,"label":"PAL Box 11 Saint Isidore , 06284 NICE Cedex 3","numéro":152,"nom_adherent":"S.O.M.I.A"},{"lng":7.130301999999999,"lat":43.639377,"label":"1180 Route Départementale 6007, 06270 VILLENEUVE-LOUBET","numéro":151,"nom_adherent":"S.O.M.I.A"},{"lng":7.322047500000001,"lat":43.7446328,"label":"10 route de Laghet, 06340 LA TRINITE","numéro":157,"nom_adherent":"SARL TRINITE FREINAGE"},{"lng":7.2198742,"lat":43.671077,"label":"61- 63 Avenue Auguste Pégurier, 06200 NICE","numéro":47,"nom_adherent":"LOGITAX"},{"lng":7.0614427,"lat":43.60143559999999,"label":"3030 chemin de Saint-Bernard, 06220 VALLAURIS","numéro":210,"nom_adherent":"TESSA"},{"lng":4.4085369,"lat":44.6120516,"label":"Bestdrive, 07200 St Didier sous Aubenas","numéro":281,"nom_adherent":"Centre Auto de Millet"},{"lng":4.6897676,"lat":45.2689935,"label":"ZA de Chantecaille, 07430 Saint Clair","numéro":79,"nom_adherent":"COSTECHARAYRE"},{"lng":4.788899000000001,"lat":49.7532319,"label":"Grande Rue, 08440 VILLE Sur LUMES","numéro":13,"nom_adherent":"COFFART"},{"lng":1.601224,"lat":43.136496,"label":"Côte de la Cavalerie, 09100 PAMIERS","numéro":22,"nom_adherent":"ETABLISSEMENTS FAURE"},{"lng":4.1169861,"lat":48.3291298,"label":"2 rue des Saules, 10150 CRENEY près TROYES","numéro":30,"nom_adherent":"Etablissements LENOIR Jean"},{"lng":3.0097947,"lat":43.193132,"label":"42, av Lattre de Tassigny, 11100 NARBONNE","numéro":133,"nom_adherent":"Aude Telephonie et Communication"},{"lng":2.557632,"lat":43.184317,"label":"Route départementale 6113, 11700 CAPENDU","numéro":287,"nom_adherent":"Garage DRIEUX"},{"lng":2.5573888,"lat":44.3038943,"label":"130 Avenue de Rodez, 12450 Luc la Primaube","numéro":254,"nom_adherent":"BR Maintenances Diffusion"},{"lng":2.035381000000001,"lat":44.349746,"label":"Avenue du 08 mai 1945, 12200 VILLEFRANCHE De Rouergue","numéro":20,"nom_adherent":"ELECTRO DIESEL PORTAL"},{"lng":5.2611818,"lat":43.4151611,"label":"AD'Park Saint-Victoret, 13730 Saint-Victoret","numéro":195,"nom_adherent":"LOGITAX"},{"lng":5.3940778,"lat":43.27984379999999,"label":"95 Rue Borde, 13008 Marseille","numéro":41,"nom_adherent":"SMTE"},{"lng":4.781105,"lat":43.62018,"label":"Zone Industrielle du Bois de Leuze, 13310 Saint MARTIN DE CRAU","numéro":270,"nom_adherent":"TAKY DE LA CRAU"},{"lng":-0.3308304,"lat":49.2076755,"label":"Z.A.C. du Citis, 14200 HEROUVILLE St CLAIR","numéro":31,"nom_adherent":"LEROUX BROCHARD S.A.S."},{"lng":2.3443252,"lat":45.2188193,"label":"Rue Blaise Pascal, 15200 MAURIAC","numéro":37,"nom_adherent":"REY Electric'Auto PL"},{"lng":-1.1884926,"lat":46.1611952,"label":"338 avenue Guiton, 17000 LA ROCHELLE","numéro":19,"nom_adherent":"E.A.R."},{"lng":-0.6427262,"lat":45.7268313,"label":"Zone Industrielle des Charriers, 17100 Saintes","numéro":277,"nom_adherent":"SAS GABARDOS"},{"lng":4.5697864,"lat":47.8738458,"label":"Avenue Noël Navoizat, 21400 CHATILLON SUR SEINE","numéro":230,"nom_adherent":"GARAGE MATHIEU"},{"lng":1.430394,"lat":44.8782206,"label":"240 Rue de la Croix du Rail, 24370 Pechs de l'esperance","numéro":304,"nom_adherent":"MECALEV"},{"lng":0.836866,"lat":45.1036969,"label":"320 route de Sarlat, 24330 St Pierre de Chignac","numéro":169,"nom_adherent":"PHIL Autos"},{"lng":5.9911829,"lat":47.2899097,"label":"Z.A. de l'Orée du Bois, 25480 PIREY","numéro":91,"nom_adherent":"Frein Services Poids Lourds"},{"lng":6.3355494,"lat":46.9016476,"label":"6 rue Maurice Laffly, 25300 PONTARLIER","numéro":61,"nom_adherent":"Tachy Service"},{"lng":4.9291691,"lat":44.9206368,"label":"2 Avenue Jean Monnet, 26000 VALENCE","numéro":192,"nom_adherent":"ELECTR'AUTO SERVICES"},{"lng":4.741275,"lat":44.5761097,"label":"18 Avenue Gaston Vernier, 26200 MONTELIMAR","numéro":211,"nom_adherent":"TECHNIC TRUCK SERVICE"},{"lng":4.7474451,"lat":44.5823231,"label":"2 chemin des Esprats, 26200 MONTELIMAR","numéro":93,"nom_adherent":"DROME ARDECHE CHRONO"},{"lng":4.8578391,"lat":44.8956179,"label":"ZI de la Motte, 26800 PORTES Les VALENCE","numéro":48,"nom_adherent":"TRUCK et CAR SERVICES"},{"lng":1.2293289,"lat":48.7627809,"label":"20 Route de Paris, 27320 NONANCOURT","numéro":320,"nom_adherent":"CONTROL'EURE"},{"lng":1.192315,"lat":49.016238,"label":"ZAC de la Rougemare, 27003 EVREUX","numéro":52,"nom_adherent":"Désert (Evreux)"},{"lng":0.5388349,"lat":49.347883,"label":"28 Avenue Jean Monnet, 27500 PONT AUDEMER","numéro":53,"nom_adherent":"Désert (Pont Audemer)"},{"lng":-4.0047095,"lat":47.9749879,"label":"Rue Louis Lumière, 29170 SAINT EVARZEC","numéro":206,"nom_adherent":"E.U.R.L. JOEL LARZUL"},{"lng":-4.5038963,"lat":48.4244989,"label":"40 rue du Prajen, 29200 BREST","numéro":171,"nom_adherent":"SAVEG Maintenance"},{"lng":4.337173600000001,"lat":43.8129116,"label":"310 cours de Dion Bouton, 30900 Nîmes","numéro":179,"nom_adherent":"AUTOCLIM"},{"lng":1.4148673,"lat":43.6330577,"label":"31 chemin de Chantelle, 31000 TOULOUSE","numéro":27,"nom_adherent":"LOGITAX"},{"lng":1.1813698,"lat":43.3822897,"label":"462 Route de Toulouse, 31370 BERAT","numéro":275,"nom_adherent":"MECA AUTO PASSION"},{"lng":1.381503,"lat":43.7318163,"label":"30 BIS chemin de Casselèvres, 31790 Saint-Jory","numéro":300,"nom_adherent":"SUD OUEST SERVICE MAINTENANCE"},{"lng":-0.7500728999999999,"lat":44.807547,"label":"182 Rue Blaise Pascal, 33127 St Jean d'Illac","numéro":124,"nom_adherent":"ATME AUTO"},{"lng":-0.6488149999999999,"lat":44.885793,"label":"Parc d'Activités Silva, 33320 EYSINES","numéro":291,"nom_adherent":"LOGITAX"},{"lng":-0.5672574,"lat":44.7799813,"label":"Village Artisanal, 33140 Villenave d'Ornon","numéro":263,"nom_adherent":"LOGITAX"},{"lng":3.9521382,"lat":43.5646077,"label":"9 parc méditerranée, 34470 PEROLS","numéro":4,"nom_adherent":"AUTO ELECTRICITE ESTABLET"},{"lng":3.5780644,"lat":43.4431456,"label":"9 bis Avenue du Mas de Garric, 34140 MEZE","numéro":183,"nom_adherent":"EQUISERV"},{"lng":3.7691641,"lat":43.6266535,"label":"20 rue des Roches, 34680 Saint Georges d'Orques","numéro":333,"nom_adherent":"La Maison du Taxi"},{"lng":-1.6788453,"lat":48.0917413,"label":"9 boulevard de l'Yser, 35200 RENNES","numéro":8,"nom_adherent":"Boisnard Electricité Automobile "},{"lng":-1.6359665,"lat":48.0987516,"label":"11 Rue du Noyer, 35000 RENNES","numéro":313,"nom_adherent":"SERVICES CAR GREEN"},{"lng":-1.1866534,"lat":48.3557199,"label":"Boulevard de Groslay, 35300 FOUGERES","numéro":62,"nom_adherent":"SODIAMA Fougères"},{"lng":0.6440289,"lat":47.3416206,"label":"8 ter rue des Artisans, 37300 Joué les Tours","numéro":186,"nom_adherent":"Harmonie Medical Service"},{"lng":4.9335267,"lat":45.4938021,"label":"2599, Route du Pin Rond, 38200 Saint-Sorlin de Vienne","numéro":193,"nom_adherent":"ACME"},{"lng":5.579593000000001,"lat":45.524485,"label":"ZI de Charancieu, 38490 CHARANCIEU","numéro":89,"nom_adherent":"VIALEX"},{"lng":5.7094488,"lat":45.1863655,"label":"3 rue Mozart, 38000 GRENOBLE","numéro":7,"nom_adherent":"BARNEOUD"},{"lng":5.2683212,"lat":45.5999988,"label":"ZI la Plaine, 38300 BOURGOIN-JALLIEU","numéro":86,"nom_adherent":"DURAND SERVICES"},{"lng":4.7865426,"lat":45.5838531,"label":"route de Givors, 38670 CHASSE sur RHONE","numéro":88,"nom_adherent":"DURAND SERVICES"},{"lng":5.6752597,"lat":45.2204035,"label":"Rue des Glairaux, 38120 SAINT EGREVE","numéro":87,"nom_adherent":"DURAND SERVICES"},{"lng":5.4976079,"lat":45.356733,"label":"Route du Levatel, 38140 RIVES","numéro":106,"nom_adherent":"DURAND SERVICES"},{"lng":5.7129492,"lat":45.1806025,"label":"28 rue Irvoy, 38000 GRENOBLE","numéro":26,"nom_adherent":"GARAGE DES VIOLETTES"},{"lng":5.6928151,"lat":46.8426955,"label":"2, rue François ARAGO, 39800 POLIGNY","numéro":189,"nom_adherent":"M.C.T.I"},{"lng":5.581976,"lat":46.676377,"label":"Rue des Grangettes, 39570 PERRIGNY","numéro":100,"nom_adherent":"Comptoir du Frein (Perrigny)"},{"lng":4.4286492,"lat":45.4400464,"label":"35 B Rue Jean Baptiste Ogier terre noire, 42100 SAINT ETIENNE","numéro":25,"nom_adherent":"GACHET Frédéric"},{"lng":3.810692,"lat":45.006403,"label":"Zone Artisanale, 43370 Saint Christophe sur Dolaison","numéro":272,"nom_adherent":"DOLAIZON AUTOMOBILES"},{"lng":-1.5472692,"lat":47.1499757,"label":"27 rue Ada Lovelace, 44400 REZE","numéro":42,"nom_adherent":"RG AUTO"},{"lng":0.673666,"lat":44.469406,"label":"Lasplantes, 47300 VILLENEUVE SUR LOT","numéro":248,"nom_adherent":"CENTRE TECHNIQUE VEHICULES INDUSTRIELS"},{"lng":0.6029715999999999,"lat":44.16364280000001,"label":"Centre routier d'Agen, 47520 LE PASSAGE","numéro":247,"nom_adherent":"TUCOM"},{"lng":-0.7211613,"lat":47.2385064,"label":"Rue Jean Monnet, 49120 Chemillé-en-Anjou","numéro":237,"nom_adherent":"MecaLan"},{"lng":-1.0660857,"lat":48.5666833,"label":"Route de Paris, 50600 ST HILAIRE DU HARCOUET","numéro":59,"nom_adherent":"SODIAMA St Hilaire"},{"lng":-1.1306558,"lat":49.11292779999999,"label":"ZAC de la Croix Carrée, 50180 AGNEAUX","numéro":60,"nom_adherent":"SODIAMA Agneaux"},{"lng":3.9392892,"lat":49.05991479999999,"label":"2 Rue des Collinettes, 51530 Mardeuil","numéro":322,"nom_adherent":"Aisne Diesel Services"},{"lng":4.6215232,"lat":48.726406,"label":"rue Saint-Jacques, 51300 MAROLLES","numéro":308,"nom_adherent":"Sarl Atelier Mecanique Services 44"},{"lng":4.6279208,"lat":48.7133209,"label":"16 rue du Rond Point, 51300 LUXEMONT VILLOTTE","numéro":198,"nom_adherent":"Nord Est Contrôles"},{"lng":4.076908,"lat":49.2169169,"label":"4, rue Clément ADER, 51500 TAISSY","numéro":239,"nom_adherent":"6TAXI (TAXIMUM)"},{"lng":5.327459999999999,"lat":47.830384,"label":"Parc Activités de l'Avenir, 52200 SAINTS GEOSMES","numéro":67,"nom_adherent":"LANGRES PIECES AUTO"},{"lng":5.141079,"lat":48.1063329,"label":"34 avenue du Maréchal Leclerc, 52000 CHAUMONT","numéro":45,"nom_adherent":"VARET"},{"lng":6.1179803,"lat":48.9366967,"label":"A31 Sortie 28, 54700 Lesmenils","numéro":349,"nom_adherent":"LOGITAX"},{"lng":6.3068082,"lat":48.63385470000001,"label":"2 Rue du Champy, 54210 Saint Nicolas de Port","numéro":278,"nom_adherent":"SAMUT"},{"lng":5.1739732,"lat":48.7641678,"label":"4 avenue du 94E Régiment d'Infanterie, 55000 BAR LE DUC","numéro":260,"nom_adherent":"GREG AUTO"},{"lng":6.2037757,"lat":49.3637917,"label":"21 rue des Métiers, 57970 YUTZ","numéro":9,"nom_adherent":"SARL ATELIER BRACH FILS "},{"lng":6.934531000000001,"lat":49.1616829,"label":"122, rue Robert Bunsen, 57460 Behren les Forbach","numéro":227,"nom_adherent":"SUPL TACHY"},{"lng":2.9252801,"lat":47.3824086,"label":"82, avenue du 85ème de Ligne, 58200 Cosne Cours Sur Loire","numéro":261,"nom_adherent":"Nouvelle FOG Automotive"},{"lng":3.145715,"lat":47.0293755,"label":"16 route de Paris, 58640 VARENNES-VAUZELLES","numéro":43,"nom_adherent":"PADOC"},{"lng":3.948163,"lat":50.118014,"label":"zone industrielle, 59440 AVESNELLES","numéro":250,"nom_adherent":"Centre de Contrôle VL et PL d'Avesnelles"},{"lng":2.6370391,"lat":50.64574229999999,"label":"17 rue Faidherbe, 59660 MERVILLE","numéro":185,"nom_adherent":"HAUTERIVE"},{"lng":3.1113678,"lat":50.3634652,"label":"Ecoquartier du Raquet, 59450 SIN LE NOBLE","numéro":292,"nom_adherent":"LOGITAX"},{"lng":3.0870178,"lat":50.5434699,"label":"63 rue de Lille, 59710 AVELIN","numéro":92,"nom_adherent":"TECHNITEL"},{"lng":3.1319558,"lat":50.7228396,"label":"2 rue de Rotterdam, 59910 BONDUES","numéro":121,"nom_adherent":"GROUPE VANDENBERGHE"},{"lng":2.995916,"lat":50.6358609,"label":"12 avenue de la Rotonde, 59160 LOMME","numéro":122,"nom_adherent":"GROUPE VANDENBERGHE"},{"lng":2.8697958,"lat":49.4340934,"label":"Rue du Pont des Rets, 60750 Choisy au Bac","numéro":194,"nom_adherent":"Aisne Diesel Services"},{"lng":2.794157,"lat":49.3866753,"label":"5 avenue Flandres Dunkerque, 60200 COMPIEGNE","numéro":68,"nom_adherent":"ETABLISSEMENTS FERCOT"},{"lng":2.1041762,"lat":49.44141870000001,"label":"26 Avenue Salvador Allende, 60000 BEAUVAIS","numéro":202,"nom_adherent":"LOGITAX"},{"lng":-0.5771210999999999,"lat":48.7454332,"label":"2 rue Durmeyer, 61100 FLERS","numéro":63,"nom_adherent":"DE CHARENTON Flers"},{"lng":0.1050119,"lat":48.7607405,"label":"Route de Paris, 61200 Gouffern en Auge","numéro":64,"nom_adherent":"DE CHARENTON Argentan"},{"lng":0.3971375,"lat":48.57671430000001,"label":"9 rue du Perche, 61170 Sainte Scolasse/Sarthe","numéro":321,"nom_adherent":"HMCT"},{"lng":1.605366,"lat":50.6897982,"label":"36 Rue René Cassin, 62230 OUTREAU","numéro":120,"nom_adherent":"GROUPE VANDENBERGHE"},{"lng":3.171026,"lat":45.8022,"label":"15 B Rue du Mont Mouchet, 63510 Aulnat","numéro":279,"nom_adherent":"AUVERGNE EQUIPEMENT TAXI"},{"lng":3.0866349,"lat":45.744814,"label":"1 impasse Jules Verne, 63110 BEAUMONT","numéro":75,"nom_adherent":"JOUVE"},{"lng":3.166945,"lat":45.743075,"label":"1 rue de Perignat, 63800 COURNON D'AUVERGNE","numéro":214,"nom_adherent":"AUVERGNE REPARATION SERVICES"},{"lng":3.1384752,"lat":45.7862508,"label":"28, rue Louis-Blériot, 63100 CLERMONT-FERRAND","numéro":161,"nom_adherent":"AURILIS GROUP"},{"lng":-1.5029376,"lat":43.4643422,"label":"2 route de Pitoys, 64600 ANGLET","numéro":205,"nom_adherent":"ADOUR DIESEL P. BERGES ET FILS"},{"lng":0.0299733,"lat":43.2196676,"label":"Zac des Pyrénées , 65420 IBOS","numéro":117,"nom_adherent":"MIDI Services"},{"lng":2.0370287,"lat":42.4926282,"label":"Route de Via Zae El Castella, 66120 Font Romeu","numéro":236,"nom_adherent":"CERDAGNE POIDS LOURDS"},{"lng":2.8719341,"lat":42.6849717,"label":"15 rue Fernand Forest, 66000 PERPIGNAN","numéro":108,"nom_adherent":"RADIO COMMUNICATION 66"},{"lng":7.764046199999999,"lat":48.6446522,"label":"7, rue de la gravière, 67116 REICHSTETT","numéro":181,"nom_adherent":"GARLOUIS CENTRE DE CONTROLE"},{"lng":7.475631799999999,"lat":48.8692489,"label":"19, rue Bellevue, 67340 INGWILLER","numéro":159,"nom_adherent":"Logistique Contrôle Maintenance"},{"lng":7.7997854,"lat":48.8124044,"label":"2, rue Chompre, 67500 HAGUENAU","numéro":226,"nom_adherent":"PRO EQUIPEMENT GARAGE"},{"lng":7.1270054,"lat":48.9161955,"label":"3 Rue de la Logistique, 67320 Thal-Drulingen","numéro":285,"nom_adherent":"SUPL Tachy"},{"lng":7.4045722,"lat":47.7549822,"label":"40, rue de l'ile Napoléon, 68170 RIXHEIM","numéro":196,"nom_adherent":"NAPI TACHY"},{"lng":4.9013312,"lat":45.6916385,"label":"2 rue Pierre Timbaud, 69200 VENISSIEUX","numéro":160,"nom_adherent":"FOURNITURES REPARATIONS AUTOMOBILES INDUSTRIELLES"},{"lng":4.9743097,"lat":45.7251779,"label":"41 Av des frères Montgolfier, 69680 CHASSIEU","numéro":201,"nom_adherent":"DURAND SERVICES"},{"lng":4.9062905,"lat":45.7295667,"label":"3 rue d'Annonay, 69500 BRON","numéro":21,"nom_adherent":"EUROTAX"},{"lng":4.841688599999999,"lat":45.7507707,"label":"33 rue du Capitaine R. Cluzan, 69007 LYON","numéro":23,"nom_adherent":"GARAGE TAXI FORTE"},{"lng":4.752320999999999,"lat":45.665636,"label":"216 Avenue du Général de Gaulle, 69530 BRIGNAIS","numéro":293,"nom_adherent":"MORELLE AUTO"},{"lng":6.1510349,"lat":47.63975569999999,"label":"2 rue Victor Dollé Parc technologia, 70001 VESOUL CEDEX","numéro":46,"nom_adherent":"VESOUL ELECTRO DIESEL"},{"lng":4.4677752,"lat":46.7528405,"label":"45 Avenue de la République, 71210 MONTCHANIN","numéro":245,"nom_adherent":"DSN Automobile"},{"lng":4.813151,"lat":46.770409,"label":"1 B rue Pierre Jacques , 71100 SAINT REMY","numéro":251,"nom_adherent":"Prepa CT"},{"lng":5.903967000000001,"lat":45.688944,"label":"640 Boulevard LEPIC, 73100 AIX LES BAINS","numéro":74,"nom_adherent":"BFM Auto"},{"lng":6.0931951,"lat":46.1433353,"label":"13 B route d'Annemasse, 74160 Saint Julien en Genevois","numéro":243,"nom_adherent":"MONT-BLANC LEMAN INSTALLATEUR"},{"lng":0.4803237,"lat":49.5586486,"label":"83, avenue FOCH, 76210 GRUCHET le VALASSE","numéro":104,"nom_adherent":"Ets B. COUSTHAM"},{"lng":1.0693928,"lat":49.4472005,"label":"154 Avenue du Mont Riboudet, 76000 ROUEN","numéro":18,"nom_adherent":"ETS NIORT FRERES DISTRIBUTION"},{"lng":0.755212,"lat":49.617779,"label":"ZI, 76196 YVETOT Cedex","numéro":147,"nom_adherent":"HAUTOT JEAN et FILS"},{"lng":1.089074,"lat":49.916692,"label":"20 avenue Normandie Sussex Dieppe, 76200 Dieppe","numéro":258,"nom_adherent":"ETS NIORT FRERES DISTRIBUTION"},{"lng":1.1096138,"lat":49.3837099,"label":"Boulevard Lénine, 76800 Saint Etienne du Rouvray","numéro":256,"nom_adherent":"ETS NIORT FRERES DISTRIBUTION"},{"lng":0.1435625,"lat":49.4879124,"label":"167 Boulevard Amiral Mouchez, 76600 Le HAVRE","numéro":257,"nom_adherent":"ETS NIORT FRERES DISTRIBUTION"},{"lng":1.0180079,"lat":49.4852442,"label":"rue Pierre Gilles de Gennes, 76150 Saint Jean du Cardonnay","numéro":225,"nom_adherent":"N TECH EQUIPEMENT"},{"lng":2.7301905,"lat":48.7345117,"label":"29-31 Avenue Eiffel, 77220 GRETZ-ARMAINVILLIERS","numéro":207,"nom_adherent":"ENGINS POIDS LOURDS SERVICES - EPLS"},{"lng":1.689886,"lat":48.9796437,"label":"7 Rue de l'Ouest, 78711 MANTES LA VILLE","numéro":262,"nom_adherent":"AD FORTIA"},{"lng":1.9906386,"lat":48.77196379999999,"label":"25 Avenue de l'Armée Leclerc, 78190 TRAPPES","numéro":266,"nom_adherent":"ACCESSOIRES PIECES AUTOS FRANCE"},{"lng":-0.4213855,"lat":46.3362557,"label":"342 avenue de Paris, 79000 NIORT","numéro":76,"nom_adherent":"GOUIN Equipements Véhicules"},{"lng":2.6514832,"lat":50.0027163,"label":"14 rue Lamarck, 80300 ALBERT","numéro":69,"nom_adherent":"MS TECHNOLOGIE"},{"lng":2.335582,"lat":49.91205129999999,"label":"5 avenue de la Défense Passive, 80136 RIVERY","numéro":249,"nom_adherent":"AISNE DIESEL SERVICES"},{"lng":1.8596155,"lat":50.1120258,"label":"10 voie michel DEBRAY, 80100 ABBEVILLE","numéro":109,"nom_adherent":"RECTIFICATION MODERNE ABBEVILLOISE RMA"},{"lng":2.7116485,"lat":49.8262096,"label":"Route de Vauvillers, 80170 ROSIERES","numéro":83,"nom_adherent":"Aisne Diesel Services"},{"lng":0.9470685999999999,"lat":44.1832055,"label":"4 chemin des Catalpas, 82400 CASTELSAGRAT","numéro":246,"nom_adherent":"WYDRELEC'AUTO"},{"lng":6.021594299999999,"lat":43.1429182,"label":"175 avenue Saint Just, 83130 LA GARDE","numéro":70,"nom_adherent":"BONNEL"},{"lng":6.54557,"lat":43.58998700000001,"label":"Quartier Peyblou, 83830 CALLAS","numéro":165,"nom_adherent":"DP Electronique Service"},{"lng":5.843832099999999,"lat":43.1146271,"label":"270, rue du Commerce, 83140 Six Fours les Plages","numéro":190,"nom_adherent":"S.O.M.I.A."},{"lng":6.0412119,"lat":43.1502415,"label":"187 Rue du Docteur Calmette, 83210 LA FARLEDE","numéro":168,"nom_adherent":"S.O.M.I.A"},{"lng":6.0293665,"lat":43.1398504,"label":"348 av Nicolas Fabri de Peiresc , 83130 La GARDE","numéro":156,"nom_adherent":"SMVVI"},{"lng":4.870904599999999,"lat":43.9328815,"label":"134 avenue des Souspirous, 84140 MONTFAVET","numéro":3,"nom_adherent":"AUTO ELECTRICITE ESTABLET"},{"lng":5.055721399999999,"lat":43.8290356,"label":"470 Avenue du Cheval blanc, 84300 CAVAILLON","numéro":242,"nom_adherent":"S.O.M.I.A."},{"lng":4.886873,"lat":44.0211032,"label":"115 Avenue Denis Papin, 84700 SORGUES","numéro":342,"nom_adherent":"S.O.M.I.A."},{"lng":4.9499769,"lat":43.78371,"label":"Zone Artisanale les Grandes Terres, 13810 EYGALIERES","numéro":244,"nom_adherent":"SERVI PROVENCE MAINTENANCE SYSTEME"},{"lng":0.3263651,"lat":46.6078327,"label":"Rue des Landes, 86000 POITIERS","numéro":232,"nom_adherent":"BERNIS TRUCKS"},{"lng":0.5465042,"lat":46.83628239999999,"label":"31 avenue d'Argenson, 86100 CHATELLERAULT","numéro":129,"nom_adherent":"CHOUTEAU PNEUS"},{"lng":1.1658293,"lat":45.849534,"label":"12 route de Verdoyer, 87430 Verneuil sur Vienne","numéro":346,"nom_adherent":"DTPL Distribution Transmission Poids Lourd"},{"lng":6.32518,"lat":48.3468133,"label":"20 rue de Lorraine, 88450 VINCEY","numéro":155,"nom_adherent":"POINT SERVICE AUTO"},{"lng":3.5581273,"lat":47.8502577,"label":"10 rue de madrid, 89470 Monéteau","numéro":252,"nom_adherent":"Prepa CT"},{"lng":2.4369104,"lat":48.5934315,"label":"6-8 Rue de la Closerie, 91090 LISSES","numéro":301,"nom_adherent":"CONTROLES & ANALYSES TECHNIQUES DE L'EST"},{"lng":2.3474582,"lat":48.70519609999999,"label":"140 Avenue Charles de Gaulle, 91420 MORANGIS","numéro":240,"nom_adherent":"CTPL"},{"lng":2.3169657,"lat":48.90223109999999,"label":"6 - 12 rue de Belfort, 92110 CLICHY","numéro":297,"nom_adherent":"TAXIRAMA"},{"lng":2.3477271,"lat":48.9051488,"label":"48-52 Rue Eugène Berthoud, 93400 SAINT OUEN","numéro":241,"nom_adherent":"CTS METROLOGIE"},{"lng":2.534299,"lat":48.98019,"label":"12 avenue du Valquiou, 93290 Tremblay en France","numéro":32,"nom_adherent":"LOGITAX"},{"lng":2.3605349,"lat":48.90272650000001,"label":"46/48 avenue du Président Wilson, 93210 La Plaine Saint Denis","numéro":174,"nom_adherent":"METROCAB"},{"lng":2.404528,"lat":48.7806639,"label":"140 Rue du Général Malleret Joinville, 94400 Vitry sur Seine","numéro":310,"nom_adherent":"JPM TAXIS"},{"lng":2.3652422,"lat":48.7262321,"label":"Zone Roméo BP 841, 94549 ORLY AEROGARE Cedex","numéro":228,"nom_adherent":"LOGITAX"},{"lng":2.1895657,"lat":48.9549464,"label":"Zac des Bois de Rochefort, 95240 Cormeilles en Parisis","numéro":264,"nom_adherent":"LOGITAX"},{"lng":2.1471597,"lat":49.0445874,"label":"21, rue de la Mare, 95310 Saint Ouen l'Aumône","numéro":234,"nom_adherent":"SILAT"},{"lng":55.4775437,"lat":-20.8896716,"label":"47 av de Lattre de Tassigny, 97490 SAINTE CLOTHILDE","numéro":1,"nom_adherent":"A.R.M. PAJANI"},{"lng":-52.3318445,"lat":4.8503574,"label":"11 rue Dalmazir, 97351 MATOURY","numéro":50,"nom_adherent":"COMPUPHONE"},{"lng":-60.975,"lat":14.575,"label":"Espace Roger Denis, 97224 DUCOS","numéro":29,"nom_adherent":"L.M.A.E."},{"lng":-61.552007,"lat":16.2428611,"label":"Impasse Emile Dessout, 97122 BAIE-MAHAULT GPE","numéro":176,"nom_adherent":"SOCIETE GUADELOUPEENNE DE CHRONOTACHYGRAPHE"},{"lng":55.45413199999999,"lat":-21.3156525,"label":"ZI N° 3, 97410 SAINT PIERRE","numéro":113,"nom_adherent":"SYMED"},{"lng":-61.4785718,"lat":16.2216057,"label":"Route de la Riviera Chez Jack Auto Contrôle , 97190 LE GOSIER","numéro":184,"nom_adherent":"TECHNIZEN"}]